{"U1":{"id":214433687,"haltestellen":[{"id":214666497,"name":"Oberlaa","lat":48.142442551082,"lng":16.3999582372354,"steigH":4134,"reihenfolge":1,"steigR":4133},{"id":230828919,"name":"Neulaa","lat":48.1457452971493,"lng":16.3864835079736,"steigH":4135,"reihenfolge":2,"steigR":4132},{"id":214460119,"name":"Alaudagasse","lat":48.1538903631184,"lng":16.3823243082082,"steigH":4136,"reihenfolge":3,"steigR":4131},{"id":214460138,"name":"Altes Landgut","lat":48.1621060403008,"lng":16.3833843202434,"steigH":4137,"reihenfolge":4,"steigR":4130},{"id":230828952,"name":"Troststraße","lat":48.169038305165,"lng":16.3803839471945,"steigH":4138,"reihenfolge":5,"steigR":4129},{"id":214461177,"name":"Reumannplatz","lat":48.174154518495,"lng":16.3781920579012,"steigH":4101,"reihenfolge":6,"steigR":4128},{"id":214460771,"name":"Keplerplatz","lat":48.178132111491,"lng":16.3765391577784,"steigH":4103,"reihenfolge":7,"steigR":4126},{"id":214461409,"name":"Hauptbahnhof","lat":48.1851879855188,"lng":16.3764133936387,"steigH":4105,"reihenfolge":8,"steigR":4124},{"id":214461422,"name":"Taubstummengasse","lat":48.1938777144884,"lng":16.3702779002481,"steigH":4107,"reihenfolge":9,"steigR":4122},{"id":214460762,"name":"Karlsplatz","lat":48.2008475966667,"lng":16.3688765284049,"steigH":4109,"reihenfolge":10,"steigR":4120},{"id":214461385,"name":"Stephansplatz","lat":48.2081338220924,"lng":16.3716343563271,"steigH":4111,"reihenfolge":11,"steigR":4118},{"id":214461276,"name":"Schwedenplatz","lat":48.2117496082805,"lng":16.3778956138575,"steigH":4113,"reihenfolge":12,"steigR":4116},{"id":214461016,"name":"Nestroyplatz","lat":48.2148144456506,"lng":16.384650944794,"steigH":4115,"reihenfolge":13,"steigR":4114},{"id":214461125,"name":"Praterstern","lat":48.2185135557888,"lng":16.3923315404733,"steigH":4117,"reihenfolge":14,"steigR":4112},{"id":214461487,"name":"Vorgartenstraße","lat":48.2240916436254,"lng":16.4018896150963,"steigH":4119,"reihenfolge":15,"steigR":4110},{"id":214460339,"name":"Donauinsel","lat":48.2289989006584,"lng":16.4109805657716,"steigH":4121,"reihenfolge":16,"steigR":4108},{"id":214460746,"name":"Kaisermühlen-VIC","lat":48.2323379601984,"lng":16.4154990916507,"steigH":4123,"reihenfolge":17,"steigR":4106},{"id":214460136,"name":"Alte Donau","lat":48.2379564234283,"lng":16.4242307162123,"steigH":4125,"reihenfolge":18,"steigR":4104},{"id":214460732,"name":"Kagran","lat":48.2436460592695,"lng":16.433698959307,"steigH":4127,"reihenfolge":19,"steigR":4102},{"id":214460738,"name":"Kagraner Platz","lat":48.2503041038334,"lng":16.4433019496942,"steigH":4181,"reihenfolge":20,"steigR":4186},{"id":214461888,"name":"Rennbahnweg","lat":48.257356019686,"lng":16.4494464262376,"steigH":4182,"reihenfolge":21,"steigR":4187},{"id":214461886,"name":"Aderklaaer Straße","lat":48.2627624278838,"lng":16.4515754334609,"steigH":4183,"reihenfolge":22,"steigR":4188},{"id":214461887,"name":"Großfeldsiedlung","lat":48.2706317965585,"lng":16.4480720038529,"steigH":4184,"reihenfolge":23,"steigR":4189},{"id":214460873,"name":"Leopoldau","lat":48.2777287364278,"lng":16.4498416849626,"steigH":4185,"reihenfolge":24,"steigR":4190}]},"U2":{"id":214433689,"haltestellen":[{"id":214550392,"name":"Seestadt","lat":48.2263897347649,"lng":16.5084747235571,"steigH":4277,"reihenfolge":1,"steigR":4276},{"id":214507152,"name":"Aspern Nord","lat":48.2344801094726,"lng":16.504576035224,"steigH":4278,"reihenfolge":2,"steigR":4275},{"id":214460592,"name":"Hausfeldstraße","lat":48.2337142116523,"lng":16.4869780388081,"steigH":4279,"reihenfolge":3,"steigR":4274},{"id":214460404,"name":"Aspernstraße","lat":48.2224458118244,"lng":16.4747609509441,"steigH":4251,"reihenfolge":4,"steigR":4272},{"id":214461353,"name":"Donauspital","lat":48.2195609898773,"lng":16.4659933937711,"steigH":4252,"reihenfolge":5,"steigR":4271},{"id":214460578,"name":"Hardeggasse","lat":48.2208897039984,"lng":16.457791775227,"steigH":4253,"reihenfolge":6,"steigR":4270},{"id":214461367,"name":"Stadlau","lat":48.2191719454318,"lng":16.4483235321324,"steigH":4254,"reihenfolge":7,"steigR":4269},{"id":214460395,"name":"Donaustadtbrücke","lat":48.2117915115908,"lng":16.4401308967413,"steigH":4255,"reihenfolge":8,"steigR":4268},{"id":214460387,"name":"Donaumarina","lat":48.2061222808525,"lng":16.4309680808432,"steigH":4256,"reihenfolge":9,"steigR":4267},{"id":214461911,"name":"Stadion","lat":48.2110791506522,"lng":16.4197660892503,"steigH":4257,"reihenfolge":10,"steigR":4266},{"id":214461910,"name":"Krieau","lat":48.2144912097378,"lng":16.414124669266,"steigH":4258,"reihenfolge":11,"steigR":4265},{"id":214461909,"name":"Messe-Prater","lat":48.2177893174017,"lng":16.4056984719009,"steigH":4259,"reihenfolge":12,"steigR":4264},{"id":214461125,"name":"Praterstern","lat":48.2185135557888,"lng":16.3923315404733,"steigH":4260,"reihenfolge":13,"steigR":4263},{"id":214461908,"name":"Taborstraße","lat":48.218974429428,"lng":16.3808331048365,"steigH":4261,"reihenfolge":14,"steigR":4262},{"id":214461261,"name":"Schottenring","lat":48.2169214149303,"lng":16.371131299768,"steigH":4201,"reihenfolge":15,"steigR":4214},{"id":214461263,"name":"Schottentor","lat":48.2139405068162,"lng":16.3622649279138,"steigH":4203,"reihenfolge":16,"steigR":4212},{"id":214461155,"name":"Rathaus","lat":48.2100255566437,"lng":16.3553479002261,"steigH":4205,"reihenfolge":17,"steigR":4210},{"id":214461485,"name":"Volkstheater","lat":48.20514042846,"lng":16.3579709808557,"steigH":4209,"reihenfolge":18,"steigR":4206},{"id":214460938,"name":"Museumsquartier","lat":48.2025360336844,"lng":16.3614115283939,"steigH":4211,"reihenfolge":19,"steigR":4204},{"id":214460762,"name":"Karlsplatz","lat":48.2008475966667,"lng":16.3688765284049,"steigH":4213,"reihenfolge":20,"steigR":4202}]},"U3":{"id":214433691,"haltestellen":[{"id":214461074,"name":"Ottakring","lat":48.2120249722633,"lng":16.3116718111122,"steigH":4931,"reihenfolge":1,"steigR":4930},{"id":214461382,"name":"Kendlerstraße","lat":48.2047093653665,"lng":16.3090846630939,"steigH":4932,"reihenfolge":2,"steigR":4929},{"id":214461121,"name":"Hütteldorfer Straße","lat":48.1991231780155,"lng":16.3122108002826,"steigH":4933,"reihenfolge":3,"steigR":4928},{"id":214460711,"name":"Johnstraße","lat":48.1976741424633,"lng":16.3196398676823,"steigH":4926,"reihenfolge":4,"steigR":4925},{"id":214461278,"name":"Schweglerstraße","lat":48.1978897040661,"lng":16.3283984417025,"steigH":4927,"reihenfolge":5,"steigR":4924},{"id":214461519,"name":"Westbahnhof","lat":48.1966562004186,"lng":16.3376510891289,"steigH":4921,"reihenfolge":6,"steigR":4920},{"id":214461577,"name":"Zieglergasse","lat":48.1969675730735,"lng":16.3453676174195,"steigH":4922,"reihenfolge":7,"steigR":4919},{"id":214460161,"name":"Neubaugasse","lat":48.1982908857453,"lng":16.350200553648,"steigH":4923,"reihenfolge":8,"steigR":4918},{"id":214461485,"name":"Volkstheater","lat":48.20514042846,"lng":16.3579709808557,"steigH":4909,"reihenfolge":9,"steigR":4908},{"id":214460611,"name":"Herrengasse","lat":48.2094867786037,"lng":16.3658492058974,"steigH":4910,"reihenfolge":10,"steigR":4907},{"id":214461385,"name":"Stephansplatz","lat":48.2081338220924,"lng":16.3716343563271,"steigH":4911,"reihenfolge":11,"steigR":4906},{"id":214460350,"name":"Stubentor","lat":48.2070681940144,"lng":16.3802761493604,"steigH":4912,"reihenfolge":12,"steigR":4905},{"id":214460847,"name":"Wien Mitte-Landstraße","lat":48.2060444517766,"lng":16.3845880627241,"steigH":4913,"reihenfolge":13,"steigR":4904},{"id":214461186,"name":"Rochusgasse","lat":48.2025240591498,"lng":16.391325427355,"steigH":4914,"reihenfolge":14,"steigR":4903},{"id":214460758,"name":"Kardinal-Nagl-Platz","lat":48.1973328347375,"lng":16.4005331590173,"steigH":4915,"reihenfolge":15,"steigR":4902},{"id":214461277,"name":"Schlachthausgasse","lat":48.1940334094952,"lng":16.407450186705,"steigH":4916,"reihenfolge":16,"steigR":4901},{"id":214460394,"name":"Erdberg","lat":48.1915242669567,"lng":16.4139989051262,"steigH":4917,"reihenfolge":17,"steigR":4900},{"id":214461778,"name":"Gasometer","lat":48.1855293741445,"lng":16.4177628461667,"steigH":4934,"reihenfolge":18,"steigR":4941},{"id":214460504,"name":"Zippererstraße","lat":48.1794978403254,"lng":16.411124296217,"steigH":4935,"reihenfolge":19,"steigR":4940},{"id":214460530,"name":"Enkplatz","lat":48.1743402262398,"lng":16.415310445441,"steigH":4936,"reihenfolge":20,"steigR":4939},{"id":214461337,"name":"Simmering","lat":48.1701586437705,"lng":16.420008634377,"steigH":4937,"reihenfolge":21,"steigR":4938}]},"U4":{"id":214433693,"haltestellen":[{"id":214460665,"name":"Hütteldorf","lat":48.1973867255822,"lng":16.2610697111577,"steigH":4401,"reihenfolge":1,"steigR":4436},{"id":214461050,"name":"Ober St. Veit","lat":48.1922907960883,"lng":16.2757212334417,"steigH":4403,"reihenfolge":2,"steigR":4434},{"id":214461460,"name":"Unter St. Veit","lat":48.1910032601422,"lng":16.2867525451307,"steigH":4405,"reihenfolge":3,"steigR":4432},{"id":214460266,"name":"Braunschweiggasse","lat":48.1894881182707,"lng":16.2954572202338,"steigH":4407,"reihenfolge":4,"steigR":4430},{"id":214460625,"name":"Hietzing","lat":48.187793262228,"lng":16.3038654512932,"steigH":4409,"reihenfolge":5,"steigR":4428},{"id":214461289,"name":"Schönbrunn","lat":48.185900706559,"lng":16.3194781709312,"steigH":4411,"reihenfolge":6,"steigR":4426},{"id":214460965,"name":"Meidling Hauptstraße","lat":48.183666682246,"lng":16.3289374308729,"steigH":4413,"reihenfolge":7,"steigR":4424},{"id":214460923,"name":"Längenfeldgasse","lat":48.1851161139395,"lng":16.3353603851544,"steigH":4437,"reihenfolge":8,"steigR":4438},{"id":214460930,"name":"Margaretengürtel","lat":48.1882903459574,"lng":16.3425019916631,"steigH":4415,"reihenfolge":9,"steigR":4422},{"id":214461108,"name":"Pilgramgasse","lat":48.1926261489778,"lng":16.3544765344005,"steigH":4417,"reihenfolge":10,"steigR":4420},{"id":214460775,"name":"Kettenbrückengasse","lat":48.1968178749179,"lng":16.3589950602796,"steigH":4419,"reihenfolge":11,"steigR":4418},{"id":214460762,"name":"Karlsplatz","lat":48.2008475966667,"lng":16.3688765284049,"steigH":4421,"reihenfolge":12,"steigR":4416},{"id":214461371,"name":"Stadtpark","lat":48.2025120846123,"lng":16.379108339491,"steigH":4423,"reihenfolge":13,"steigR":4414},{"id":214460847,"name":"Wien Mitte-Landstraße","lat":48.2060444517766,"lng":16.3845880627241,"steigH":4425,"reihenfolge":14,"steigR":4412},{"id":214461276,"name":"Schwedenplatz","lat":48.2117496082805,"lng":16.3778956138575,"steigH":4427,"reihenfolge":15,"steigR":4410},{"id":214461261,"name":"Schottenring","lat":48.2169214149303,"lng":16.371131299768,"steigH":4429,"reihenfolge":16,"steigR":4408},{"id":214461205,"name":"Roßauer Lände","lat":48.2221405790187,"lng":16.3675021060202,"steigH":4431,"reihenfolge":17,"steigR":4406},{"id":214460462,"name":"Friedensbrücke","lat":48.2270300699041,"lng":16.3648790253906,"steigH":4433,"reihenfolge":18},{"id":214461145,"name":"Spittelau","lat":48.2356109845114,"lng":16.3583662395807,"steigH":4439,"reihenfolge":19,"steigR":4440},{"id":214460596,"name":"Heiligenstadt","lat":48.2489641896889,"lng":16.3657234417576,"steigH":4435,"reihenfolge":20,"steigR":4402}]},"U6":{"id":214433695,"haltestellen":[{"id":214461312,"name":"Siebenhirten","lat":48.1298889787135,"lng":16.3097045006399,"steigH":4635,"reihenfolge":1,"steigR":4634},{"id":214461098,"name":"Perfektastraße","lat":48.1366577378758,"lng":16.3132528460122,"steigH":4636,"reihenfolge":2,"steigR":4633},{"id":214460390,"name":"Erlaaer Straße","lat":48.1418491132051,"lng":16.3165316967992,"steigH":4637,"reihenfolge":3,"steigR":4632},{"id":214461547,"name":"Alterlaa","lat":48.1508878071215,"lng":16.3169808544413,"steigH":4638,"reihenfolge":4,"steigR":4631},{"id":214460153,"name":"Am Schöpfwerk","lat":48.1612312021862,"lng":16.3246075512035,"steigH":4639,"reihenfolge":5,"steigR":4630},{"id":214461450,"name":"Tscherttegasse","lat":48.1650779816342,"lng":16.3279043682962,"steigH":4640,"reihenfolge":6,"steigR":4629},{"id":214461106,"name":"Meidling","lat":48.1743402262398,"lng":16.3319917028389,"steigH":4615,"reihenfolge":7,"steigR":4614},{"id":214461036,"name":"Niederhofstraße","lat":48.1810611957759,"lng":16.3311922022361,"steigH":4616,"reihenfolge":8,"steigR":4613},{"id":214460923,"name":"Längenfeldgasse","lat":48.1851161139395,"lng":16.3353603851544,"steigH":4617,"reihenfolge":9,"steigR":4612},{"id":214460541,"name":"Gumpendorfer Straße","lat":48.1907277831339,"lng":16.3375612576005,"steigH":4618,"reihenfolge":10,"steigR":4611},{"id":214461519,"name":"Westbahnhof","lat":48.1966562004186,"lng":16.3376510891289,"steigH":4619,"reihenfolge":11,"steigR":4610},{"id":214460293,"name":"Burggasse-Stadthalle","lat":48.2022965424591,"lng":16.3373097293209,"steigH":4620,"reihenfolge":12,"steigR":4609},{"id":214461428,"name":"Thaliastraße","lat":48.2085648563651,"lng":16.3384326234261,"steigH":4621,"reihenfolge":13,"steigR":4608},{"id":214460720,"name":"Josefstädter Straße","lat":48.2113844494108,"lng":16.3391602588062,"steigH":4622,"reihenfolge":14,"steigR":0},{"id":214460132,"name":"Alser Straße","lat":48.217142881097,"lng":16.341998935104,"steigH":4623,"reihenfolge":15,"steigR":4606},{"id":214460975,"name":"Michelbeuern-AKH","lat":48.220985465846,"lng":16.3439392961177,"steigH":4624,"reihenfolge":16,"steigR":4605},{"id":214461558,"name":"Währinger Straße-Volksoper","lat":48.225270625146,"lng":16.3493291878225,"steigH":4625,"reihenfolge":17,"steigR":4604},{"id":214461045,"name":"Nußdorfer Straße","lat":48.2314822721546,"lng":16.3528865163476,"steigH":4626,"reihenfolge":18,"steigR":4603},{"id":214461145,"name":"Spittelau","lat":48.2356109845114,"lng":16.3583662395807,"steigH":4627,"reihenfolge":19,"steigR":4651},{"id":214461702,"name":"Jägerstraße","lat":48.2352340289423,"lng":16.3694694164924,"steigH":4641,"reihenfolge":20,"steigR":4650},{"id":214460605,"name":"Dresdner Straße","lat":48.2369811646931,"lng":16.3795215645217,"steigH":4642,"reihenfolge":21,"steigR":4649},{"id":214461737,"name":"Handelskai","lat":48.2417974457343,"lng":16.3852258665759,"steigH":4643,"reihenfolge":22,"steigR":4648},{"id":214461703,"name":"Neue Donau","lat":48.2464697024341,"lng":16.3956193744131,"steigH":4644,"reihenfolge":23,"steigR":4647},{"id":214460439,"name":"Floridsdorf","lat":48.2567938161037,"lng":16.4002995970434,"steigH":4645,"reihenfolge":24,"steigR":4646}]}}