{"U1":{"linieID":"214433687"},"U2":{"linieID":"214433689"},"U3":{"linieID":"214433691"},"U4":{"linieID":"214433693"},"U6":{"linieID":"214433695","haltestellen":{"214460132":{"steige":[{"r":"H","rbl":"4623"},{"r":"R","rbl":"4606"}],"name":"Alser Straße","lat":"48.217142881097","lng":"16.341998935104"},"214460153":{"steige":[{"r":"H","rbl":"4639"},{"r":"R","rbl":"4630"}],"name":"Am Schöpfwerk","lat":"48.1612312021862","lng":"16.3246075512035"},"214460293":{"steige":[{"r":"H","rbl":"4620"},{"r":"R","rbl":"4609"}],"name":"Burggasse-Stadthalle","lat":"48.2022965424591","lng":"16.3373097293209"},"214460390":{"steige":[{"r":"H","rbl":"4637"},{"r":"R","rbl":"4632"}],"name":"Erlaaer Straße","lat":"48.1418491132051","lng":"16.3165316967992"},"214460439":{"steige":[{"r":"H","rbl":"4645"},{"r":"R","rbl":"4646"}],"name":"Floridsdorf","lat":"48.2567938161037","lng":"16.4002995970434"},"214460541":{"steige":[{"r":"H","rbl":"4618"},{"r":"R","rbl":"4611"}],"name":"Gumpendorfer Straße","lat":"48.1907277831339","lng":"16.3375612576005"},"214460605":{"steige":[{"r":"H","rbl":"4642"},{"r":"R","rbl":"4649"}],"name":"Dresdner Straße","lat":"48.2369811646931","lng":"16.3795215645217"},"214460720":{"steige":[{"r":"H","rbl":"4622"},{"r":"R","rbl":""}],"name":"Josefstädter Straße","lat":"48.2113844494108","lng":"16.3391602588062"},"214460923":{"steige":[{"r":"H","rbl":"4617"},{"r":"R","rbl":"4612"}],"name":"Längenfeldgasse","lat":"48.1851161139395","lng":"16.3353603851544"},"214460975":{"steige":[{"r":"H","rbl":"4624"},{"r":"R","rbl":"4605"}],"name":"Michelbeuern-AKH","lat":"48.220985465846","lng":"16.3439392961177"},"214461036":{"steige":[{"r":"H","rbl":"4616"},{"r":"R","rbl":"4613"}],"name":"Niederhofstraße","lat":"48.1810611957759","lng":"16.3311922022361"},"214461045":{"steige":[{"r":"H","rbl":"4626"},{"r":"R","rbl":"4603"}],"name":"Nußdorfer Straße","lat":"48.2314822721546","lng":"16.3528865163476"},"214461098":{"steige":[{"r":"H","rbl":"4636"},{"r":"R","rbl":"4633"}],"name":"Perfektastraße","lat":"48.1366577378758","lng":"16.3132528460122"},"214461106":{"steige":[{"r":"H","rbl":"4615"},{"r":"R","rbl":"4614"}],"name":"Meidling","lat":"48.1743402262398","lng":"16.3319917028389"},"214461145":{"steige":[{"r":"H","rbl":"4627"},{"r":"R","rbl":"4651"}],"name":"Spittelau","lat":"48.2356109845114","lng":"16.3583662395807"},"214461312":{"steige":[{"r":"H","rbl":"4635"},{"r":"R","rbl":"4634"}],"name":"Siebenhirten","lat":"48.1298889787135","lng":"16.3097045006399"},"214461428":{"steige":[{"r":"H","rbl":"4621"},{"r":"R","rbl":"4608"}],"name":"Thaliastraße","lat":"48.2085648563651","lng":"16.3384326234261"},"214461450":{"steige":[{"r":"H","rbl":"4640"},{"r":"R","rbl":"4629"}],"name":"Tscherttegasse","lat":"48.1650779816342","lng":"16.3279043682962"},"214461519":{"steige":[{"r":"H","rbl":"4619"},{"r":"R","rbl":"4610"}],"name":"Westbahnhof","lat":"48.1966562004186","lng":"16.3376510891289"},"214461547":{"steige":[{"r":"H","rbl":"4638"},{"r":"R","rbl":"4631"}],"name":"Alterlaa","lat":"48.1508878071215","lng":"16.3169808544413"},"214461558":{"steige":[{"r":"H","rbl":"4625"},{"r":"R","rbl":"4604"}],"name":"Währinger Straße-Volksoper","lat":"48.225270625146","lng":"16.3493291878225"},"214461702":{"steige":[{"r":"H","rbl":"4641"},{"r":"R","rbl":"4650"}],"name":"Jägerstraße","lat":"48.2352340289423","lng":"16.3694694164924"},"214461703":{"steige":[{"r":"H","rbl":"4644"},{"r":"R","rbl":"4647"}],"name":"Neue Donau","lat":"48.2464697024341","lng":"16.3956193744131"},"214461737":{"steige":[{"r":"H","rbl":"4643"},{"r":"R","rbl":"4648"}],"name":"Handelskai","lat":"48.2417974457343","lng":"16.3852258665759"}}}}